[{
  "clientId": "regression",
  "id": "DOE7D6ORER18",
  "code": "DOE7D6OR",
  "name": "sdet_test_1",
  "type": "KITCHEN",
  "teams": [{
    "clientId": "regression",
    "teamId": "spmd"
  }],
  "address": {
    "placeName": "?????????",
    "formattedAddress": "1111111112233",
    "localityName": "??????",
    "pincode": "??????",
    "city": "??????",
    "state": "??????",
    "countryCode": "IN"
  },
  "timeSlots": [],
  "transactionDuration": 1800,
  "users": [],
  "skills": [],
  "vehicleModels": [],
  "customProperties": {},
  "pincodes": [],
  "locationLearningAudit": []
}, {
  "clientId": "regression",
  "id": "O6ODE6DE",
  "code": "O6ODE6DE",
  "name": "sdet_test_2",
  "type": "CLIENT",
  "teams": [{
    "clientId": "regression",
    "teamId": "spmd"
  }],
  "address": {
    "placeName": "Central Warehouse",
    "formattedAddress": "23rd Cross, 4th Main, Block 4, Koramangala, Bengaluru",
    "localityName": "HSR",
    "pincode": "560102",
    "city": "Bengaluru",
    "state": "Karnataka",
    "countryCode": "IN"
  },
  "latLng": {
    "lat": "12.94715",
    "lng": "77.57888"
  },
  "timeSlots": [],
  "transactionDuration": 3000,
  "users": [],
  "skills": [],
  "vehicleModels": [],
  "customProperties": {},
  "pincodes": [],
  "locationLearningAudit": []
}, {
  "clientId": "regression",
  "id": "8RRDRRRD1",
  "code": "8RRDRRRD1",
  "name": "sdet_test_3",
  "type": "CLIENT",
  "teams": [{
    "clientId": "regression",
    "teamId": "spmd"
  }],
  "address": {
    "placeName": "Central Warehouse",
    "formattedAddress": "Ejipura, Bengaluru",
    "localityName": "Ejipura",
    "pincode": "560047",
    "city": "Bengaluru",
    "state": "Karnataka",
    "countryCode": "IN"
  },
  "latLng": {
    "lat": "12.9448307",
    "lng": "77.6178788"
  },
  "timeSlots": [],
  "transactionDuration": 1800,
  "users": [],
  "skills": [],
  "vehicleModels": [],
  "customProperties": {},
  "pincodes": [],
  "locationLearningAudit": []
}, {
  "clientId": "regression",
  "id": "OORO5R6R",
  "code": "OORO5R6R",
  "name": "sdet_test_4",
  "type": "CLIENT",
  "teams": [{
    "clientId": "regression",
    "teamId": "spmd"
  }],
  "address": {
    "placeName": "Central Warehouse",
    "formattedAddress": "23rd Cross, 4th Main, Block 4, Koramangala, Bengaluru",
    "localityName": "HSR",
    "pincode": "560102",
    "city": "Bengaluru",
    "state": "Karnataka",
    "countryCode": "IN"
  },
  "latLng": {
    "lat": "12.94715",
    "lng": "77.57888"
  },
  "timeSlots": [],
  "transactionDuration": 3000,
  "users": [],
  "skills": [],
  "vehicleModels": [],
  "customProperties": {},
  "pincodes": [],
  "locationLearningAudit": []
}, {
  "clientId": "regression",
  "id": "68E8R7R8",
  "code": "68E8R7R8",
  "name": "sdet_test_5",
  "type": "CLIENT",
  "teams": [{
    "clientId": "regression",
    "teamId": "spmd"
  }],
  "address": {
    "placeName": "Central Warehouse",
    "formattedAddress": "23rd Cross, 4th Main, Block 4, Koramangala, Bengaluru",
    "localityName": "Koramangala",
    "pincode": "560034",
    "city": "Bengaluru",
    "state": "Karnataka",
    "countryCode": "IN"
  },
  "latLng": {
    "lat": "12.94509",
    "lng": "77.619343"
  },
  "timeSlots": [],
  "transactionDuration": 3600,
  "users": [],
  "skills": [],
  "vehicleModels": [],
  "customProperties": {},
  "pincodes": [],
  "locationLearningAudit": []
}, {
  "clientId": "regression",
  "id": "E71DOR6O",
  "code": "E71DOR6O",
  "name": "sdet_test_6",
  "type": "CLIENT",
  "teams": [{
    "clientId": "regression",
    "teamId": "spmd"
  }],
  "address": {
    "placeName": "Central Warehouse",
    "formattedAddress": "23rd Cross, 4th Main, Block 4, Koramangala, Bengaluru",
    "localityName": "HSR",
    "pincode": "560102",
    "city": "Bengaluru",
    "state": "Karnataka",
    "countryCode": "IN"
  },
  "latLng": {
    "lat": "12.94715",
    "lng": "77.57888"
  },
  "timeSlots": [],
  "transactionDuration": 3000,
  "users": [],
  "skills": [],
  "vehicleModels": [],
  "customProperties": {},
  "pincodes": [],
  "locationLearningAudit": []
}, {
  "clientId": "regression",
  "id": "EE18RROO",
  "code": "EE18RROO",
  "name": "sdet_test_7",
  "type": "CLIENT",
  "teams": [{
    "clientId": "regression",
    "teamId": "spmd"
  }],
  "address": {
    "placeName": "Central Warehouse",
    "formattedAddress": "23rd Cross, 4th Main, Block 4, Koramangala, Bengaluru",
    "localityName": "Koramangala",
    "pincode": "560034",
    "city": "Bengaluru",
    "state": "Karnataka",
    "countryCode": "IN"
  },
  "latLng": {
    "lat": "12.94509",
    "lng": "77.619343"
  },
  "timeSlots": [],
  "transactionDuration": 4200,
  "users": [],
  "skills": [],
  "vehicleModels": [],
  "customProperties": {},
  "pincodes": [],
  "locationLearningAudit": []
}, {
  "clientId": "regression",
  "id": "RR1RR567",
  "code": "RR1RR567",
  "name": "sdet_test_8",
  "type": "CLIENT",
  "teams": [{
    "clientId": "regression",
    "teamId": "spmd"
  }],
  "address": {
    "placeName": "Central Warehouse",
    "formattedAddress": "23rd Cross, 4th Main, Block 4, Koramangala, Bengaluru",
    "localityName": "HSR",
    "pincode": "560102",
    "city": "Bengaluru",
    "state": "Karnataka",
    "countryCode": "IN"
  },
  "latLng": {
    "lat": "12.94715",
    "lng": "77.57888"
  },
  "timeSlots": [],
  "transactionDuration": 3000,
  "users": [],
  "skills": [],
  "vehicleModels": [],
  "customProperties": {},
  "pincodes": [],
  "locationLearningAudit": []
}, {
  "clientId": "regression",
  "id": "1E5D15R5",
  "code": "1E5D15R5",
  "name": "sdet_test_9",
  "type": "CLIENT",
  "teams": [{
    "clientId": "regression",
    "teamId": "spmd"
  }],
  "address": {
    "placeName": "Central Warehouse",
    "formattedAddress": "23rd Cross, 4th Main, Block 4, Koramangala, Bengaluru",
    "localityName": "Koramangala",
    "pincode": "560034",
    "city": "Bengaluru",
    "state": "Karnataka",
    "countryCode": "IN"
  },
  "latLng": {
    "lat": "12.94509",
    "lng": "77.619343"
  },
  "timeSlots": [],
  "transactionDuration": 5400,
  "users": [],
  "skills": [],
  "vehicleModels": [],
  "customProperties": {},
  "pincodes": [],
  "locationLearningAudit": []
}]